,Landmark Name,Latitude,Longitude,Number of EV charger station,Name and distance of each station
0,Port of Melbourne,-37.8137384362671,144.91753432375,0,N/a
1,Carlton Football Club,-37.7840864379557,144.961967841559,0,N/a
2,Carlton Gardens North,-37.8017690847403,144.971997551189,6,"Melbourne Museum: 321m, Lygon Street Car park: 434m, Lonsdale St: 943m, Carlton: 427m, Lonsdale St: 944m, Carlton: 160m, "
3,Kings Domain,-37.8255239795833,144.974107925144,9,"Secure Parking: 853m, Holiday Inn Express Melbourne Southbank: 769m, South Melbourne: 837m, Wilson Parking Eureka: 890m, Southbank: 761m, Southbank: 865m, Southbank: 957m, Federation Square Car Park: 900m, The Arts Centre: 646m, "
4,Flemington Racecourse,-37.7908082646624,144.912142987372,0,N/a
5,Treasury Gardens,-37.8143993575938,144.975952335785,18,"Park Hyatt Melbourne: 274m, Wilson Parking: 793m, Collins St: 518m, Lonsdale St: 731m, Russell St: 780m, Russell St: 793m, Flinders St: 484m, Secure Parking (Southern Cross): 604m, Pullman Melbourne on the Park: 663m, Parliament PI: 371m, ACDC Garage: 496m, Pullman Melbourne: 659m, Lonsdale St: 919m, Bourke St: 509m, Lonsdale St: 669m, Grand Hyatt Melbourne: 552m, Federation Square Car Park: 553m, QV Melbourne - Car Park: 920m, "
6,Melbourne Magistrates Court,-37.8136147671606,144.956846193891,35,"Lonsdale St: 82m, Bourke St: 134m, Secure Parking (450 Flinders Lane): 598m, Hyatt Centric Melbourne: 761m, Wilson Parking: 998m, Alto Hotel: 351m, Queen Victoria Market - Underground Carpark: 658m, Queen St: 654m, Holiday Inn Express Melbourne Little Collins: 490m, 300 Latrobe Street - Wilson Car Park: 521m, Lonsdale St: 625m, Lonsdale St: 134m, Flinders Ln: 578m, Rialto Car Park: 613m, Russell St: 975m, Russell St: 998m, Latrobe Street: 313m, West Melbourne: 644m, Wilson Parking: 134m, Secure Parking - 460 Lonsdale Street Car Park: 146m, Downie St: 741m, Southbank: 308m, Bourke St: 357m, Melbourne Central Carpark: 622m, Flagstaff City Inn: 641m, Lonsdale St: 917m, Secure Parking (300 Flinders St): 815m, Collins St: 487m, Queens & Collins: 483m, Flagstaff Car Park: 110m, Flinders Ln: 593m, Bourke St: 338m, Cellarbrations: 814m, Flinders St: 798m, QV Melbourne - Car Park: 917m, "
7,Flagstaff Railway Station,-37.8116384403974,144.9561186805,31,"Lonsdale St: 200m, Bourke St: 350m, Secure Parking (450 Flinders Lane): 827m, Hyatt Centric Melbourne: 975m, Alto Hotel: 529m, Queen Victoria Market - Underground Carpark: 466m, Queen St: 461m, Holiday Inn Express Melbourne Little Collins: 694m, 300 Latrobe Street - Wilson Car Park: 437m, Lonsdale St: 638m, Lonsdale St: 244m, Flinders Ln: 806m, Rialto Car Park: 840m, Latrobe Street: 236m, West Melbourne: 480m, Wilson Parking: 350m, Secure Parking - 460 Lonsdale Street Car Park: 250m, Downie St: 953m, Southbank: 535m, Bourke St: 541m, Melbourne Central Carpark: 650m, Flagstaff City Inn: 476m, Lonsdale St: 927m, Collins St: 690m, Queens & Collins: 672m, Flagstaff Car Park: 166m, Flinders Ln: 820m, Bourke St: 551m, Cellarbrations: 663m, Flinders St: 993m, QV Melbourne - Car Park: 927m, "
8,Melbourne Cricket Ground (MCG),-37.8194921618419,144.983402879078,2,"Pullman Melbourne on the Park: 389m, Pullman Melbourne: 409m, "
9,Queen Victoria Gardens,-37.8216381244891,144.971049530478,13,"Collins St: 746m, Holiday Inn Express Melbourne Southbank: 387m, Wilson Parking Eureka: 515m, Southbank: 327m, Flinders St: 603m, Southbank: 427m, Southbank: 540m, ACDC Garage: 607m, Secure Parking (300 Flinders St): 722m, Grand Hyatt Melbourne: 765m, Federation Square Car Park: 434m, The Arts Centre: 320m, Flinders St: 737m, "
10,Federation Square,-37.8178516571684,144.968963600783,32,"Secure Parking (450 Flinders Lane): 892m, Park Hyatt Melbourne: 910m, Wilson Parking: 736m, Collins St: 335m, Lonsdale St: 869m, Lonsdale St: 871m, Flinders Ln: 909m, Holiday Inn Express Melbourne Southbank: 493m, Russell St: 681m, Russell St: 736m, Wilson Parking Eureka: 544m, Southbank: 401m, Flinders St: 251m, Southbank: 398m, Secure Parking (Southern Cross): 602m, Southbank: 946m, Parliament PI: 999m, Southbank: 481m, ACDC Garage: 244m, Melbourne Central Carpark: 831m, Lonsdale St: 824m, Secure Parking (300 Flinders St): 436m, Bourke St: 661m, Queens & Collins: 690m, Lonsdale St: 864m, Grand Hyatt Melbourne: 340m, Federation Square Car Park: 204m, Flinders Ln: 996m, The Arts Centre: 552m, Bourke St: 860m, Flinders St: 435m, QV Melbourne - Car Park: 824m, "
11,New Quay,-37.8152178789077,144.941617889032,5,"District Docklands Shopping - West Carpark: 487m, Docklands: 459m, Docklands: 404m, Docklands: 355m, Cellarbrations: 880m, "
12,New Quay Marina,-37.8152925454954,144.942283726231,7,"District Docklands Shopping - West Carpark: 541m, Docklands: 512m, Docklands: 444m, West Melbourne: 959m, Docklands: 396m, Flagstaff City Inn: 961m, Cellarbrations: 845m, "
13,Newmarket Reserve,-37.7878473341234,144.922972125346,0,N/a
14,Wonderland Park,-37.8116945351989,144.936833674975,4,"District Docklands Shopping - West Carpark: 129m, Docklands: 131m, Docklands: 216m, Docklands: 244m, "
15,Rod Laver Arena,-37.8220456119807,144.978487173787,7,"Southbank: 981m, Flinders St: 927m, Pullman Melbourne on the Park: 791m, ACDC Garage: 940m, Pullman Melbourne: 809m, Federation Square Car Park: 793m, The Arts Centre: 953m, "
16,Melbourne Park,-37.8209085970021,144.978735802793,6,"Flinders St: 861m, Pullman Melbourne on the Park: 674m, ACDC Garage: 875m, Pullman Melbourne: 691m, Federation Square Car Park: 743m, The Arts Centre: 992m, "
17,Hisense Arena,-37.823110002667,144.981834802535,2,"Pullman Melbourne on the Park: 800m, Pullman Melbourne: 821m, "
18,Elisabeth Murdoch Hall,-37.8239733704282,144.967450979234,18,"Secure Parking: 916m, South Melbourne: 872m, Secure Parking (450 Flinders Lane): 951m, South Melbourne: 930m, Flinders Ln: 976m, Holiday Inn Express Melbourne Southbank: 241m, South Melbourne: 891m, Crown Metropol Melbourne: 874m, Wilson Parking Eureka: 319m, Southbank: 304m, Flinders St: 916m, Southbank: 370m, Southbank: 412m, ACDC Garage: 914m, Secure Parking (300 Flinders St): 702m, Federation Square Car Park: 770m, The Arts Centre: 141m, Flinders St: 726m, "
19,Melbourne Recital Centre,-37.8238327885805,144.967682729667,18,"Secure Parking: 929m, South Melbourne: 897m, Secure Parking (450 Flinders Lane): 958m, South Melbourne: 955m, Flinders Ln: 983m, Holiday Inn Express Melbourne Southbank: 233m, South Melbourne: 904m, Crown Metropol Melbourne: 897m, Wilson Parking Eureka: 321m, Southbank: 290m, Flinders St: 894m, Southbank: 362m, Southbank: 410m, ACDC Garage: 892m, Secure Parking (300 Flinders St): 697m, Federation Square Car Park: 747m, The Arts Centre: 124m, Flinders St: 721m, "
20,J.J Holland Park,-37.7982358832177,144.923837074813,2,"Park Rises Residences: 262m, Kensington: 272m, "
21,South Kensington Railway Station,-37.7997270537735,144.925837749713,2,"Park Rises Residences: 306m, Kensington: 321m, "
22,Royal Park Railway Station,-37.7812684282825,144.951667833921,0,N/a
23,Melbourne Central Railway Station,-37.8100167030855,144.963789344893,33,"Lonsdale St: 788m, Melbourne Museum: 987m, Bourke St: 834m, Lygon Street Car park: 920m, Wilson Parking: 381m, Queen Victoria Market - Underground Carpark: 542m, Collins St: 780m, Queen St: 550m, Lonsdale St: 519m, 300 Latrobe Street - Wilson Car Park: 275m, Lonsdale St: 155m, Lonsdale St: 596m, Carlton: 922m, Russell St: 397m, Russell St: 381m, Latrobe Street: 932m, Flinders St: 932m, Wilson Parking: 834m, Secure Parking - 460 Lonsdale Street Car Park: 585m, Secure Parking (Southern Cross): 572m, Southbank: 823m, ACDC Garage: 920m, Melbourne Central Carpark: 192m, Lonsdale St: 258m, Secure Parking (300 Flinders St): 918m, Bourke St: 668m, Queens & Collins: 689m, Lonsdale St: 591m, Grand Hyatt Melbourne: 746m, Flagstaff Car Park: 785m, Bourke St: 746m, Flinders St: 891m, QV Melbourne - Car Park: 257m, "
24,Riverside Park,-37.7948375315825,144.915607065132,2,"Park Rises Residences: 977m, Kensington: 976m, "
25,Flagstaff Gardens,-37.8111222889277,144.954696055235,26,"Lonsdale St: 279m, Bourke St: 434m, Secure Parking (450 Flinders Lane): 924m, Alto Hotel: 570m, Queen Victoria Market - Underground Carpark: 485m, Queen St: 477m, Holiday Inn Express Melbourne Little Collins: 750m, 300 Latrobe Street - Wilson Car Park: 537m, Lonsdale St: 763m, Lonsdale St: 378m, Flinders Ln: 902m, Rialto Car Park: 923m, Latrobe Street: 172m, West Melbourne: 343m, Wilson Parking: 435m, Secure Parking - 460 Lonsdale Street Car Park: 385m, Southbank: 642m, Bourke St: 585m, Melbourne Central Carpark: 778m, Flagstaff City Inn: 339m, Collins St: 745m, Queens & Collins: 802m, Flagstaff Car Park: 240m, Flinders Ln: 905m, Bourke St: 671m, Cellarbrations: 527m, "
26,Fawkner Park,-37.8413996708186,144.981625667877,3,"Wilson’s Carpark: 950m, Pullman Melbourne Albert Park: 997m, Queens Road: 971m, "
27,Fitzroy Gardens,-37.8129616331579,144.980455714669,13,"Park Hyatt Melbourne: 397m, Collins St: 937m, Lonsdale St: 998m, Flinders St: 910m, Secure Parking (Southern Cross): 961m, Pullman Melbourne on the Park: 416m, Parliament PI: 410m, ACDC Garage: 923m, Pullman Melbourne: 400m, Bourke St: 843m, Lonsdale St: 926m, Grand Hyatt Melbourne: 969m, Federation Square Car Park: 965m, "
28,Enterprize Park,-37.820210269629,144.959276859602,31,"Lonsdale St: 808m, Bourke St: 653m, Secure Parking (450 Flinders Lane): 165m, Hyatt Centric Melbourne: 306m, Alto Hotel: 599m, Holiday Inn Express Melbourne Little Collins: 437m, Lonsdale St: 798m, Flinders Ln: 186m, Holiday Inn Express Melbourne Southbank: 674m, Rialto Car Park: 191m, Melbourne Convention Exhibition Centre: 852m, Latrobe Street: 999m, Crown Metropol Melbourne: 605m, Wilson Parking Eureka: 545m, Southbank: 719m, Wilson Parking: 652m, Southbank: 621m, Secure Parking - 460 Lonsdale Street Car Park: 800m, Downie St: 326m, Southbank: 463m, Southbank: 505m, Bourke St: 580m, Secure Parking (300 Flinders St): 469m, Collins St: 443m, Queens & Collins: 513m, South Wharf: 722m, Flagstaff Car Park: 848m, Flinders Ln: 200m, The Arts Centre: 788m, Bourke St: 489m, Flinders St: 481m, "
29,Flinders Street Railway Station,-37.8179063007545,144.967064817875,35,"Bourke St: 995m, Secure Parking (450 Flinders Lane): 726m, Wilson Parking: 738m, Collins St: 421m, Lonsdale St: 902m, Lonsdale St: 795m, Lonsdale St: 945m, Flinders Ln: 743m, Holiday Inn Express Melbourne Southbank: 445m, Rialto Car Park: 841m, Russell St: 681m, Russell St: 738m, Wilson Parking Eureka: 455m, Southbank: 370m, Flinders St: 389m, Wilson Parking: 995m, Southbank: 324m, Secure Parking - 460 Lonsdale Street Car Park: 937m, Secure Parking (Southern Cross): 644m, Southbank: 785m, Southbank: 372m, ACDC Garage: 377m, Melbourne Central Carpark: 753m, Lonsdale St: 804m, Secure Parking (300 Flinders St): 270m, Bourke St: 728m, Queens & Collins: 536m, Lonsdale St: 911m, Grand Hyatt Melbourne: 411m, Federation Square Car Park: 371m, Flinders Ln: 829m, The Arts Centre: 537m, Bourke St: 703m, Flinders St: 268m, QV Melbourne - Car Park: 804m, "
30,Metropolitan Fire Brigade (MFB),-37.8092318636838,144.975247619376,17,"Melbourne Museum: 560m, Park Hyatt Melbourne: 310m, Wilson Parking: 691m, Collins St: 782m, Lonsdale St: 496m, Russell St: 722m, Russell St: 691m, Flinders St: 863m, Secure Parking (Southern Cross): 616m, Parliament PI: 230m, ACDC Garage: 867m, Lonsdale St: 776m, Bourke St: 497m, Lonsdale St: 428m, Grand Hyatt Melbourne: 792m, QV Melbourne - Car Park: 776m, Carlton: 737m, "
31,Commonwealth Law Courts,-37.8123961677596,144.955823833257,32,"Lonsdale St: 116m, Bourke St: 270m, Secure Parking (450 Flinders Lane): 756m, Hyatt Centric Melbourne: 891m, Alto Hotel: 441m, Queen Victoria Market - Underground Carpark: 554m, Queen St: 548m, Holiday Inn Express Melbourne Little Collins: 608m, 300 Latrobe Street - Wilson Car Park: 499m, Lonsdale St: 673m, Lonsdale St: 223m, Flinders Ln: 734m, Rialto Car Park: 762m, Latrobe Street: 193m, West Melbourne: 493m, Wilson Parking: 270m, Secure Parking - 460 Lonsdale Street Car Park: 233m, Downie St: 868m, Southbank: 470m, Bourke St: 453m, Melbourne Central Carpark: 680m, Flagstaff City Inn: 490m, Lonsdale St: 966m, Secure Parking (300 Flinders St): 972m, Collins St: 604m, Queens & Collins: 635m, Flagstaff Car Park: 79m, Flinders Ln: 742m, Bourke St: 499m, Cellarbrations: 670m, Flinders St: 954m, QV Melbourne - Car Park: 966m, "
32,Macarthur Square,-37.7983318676737,144.971514146104,4,"Melbourne Museum: 705m, Lygon Street Car park: 577m, Carlton: 572m, Carlton: 542m, "
33,City Baths,-37.8071585350561,144.963189789721,23,"Lonsdale St: 945m, Melbourne Museum: 882m, Lygon Street Car park: 652m, Wilson Parking: 614m, Queen Victoria Market - Underground Carpark: 437m, Queen St: 447m, Lonsdale St: 656m, 300 Latrobe Street - Wilson Car Park: 388m, Lonsdale St: 469m, Lonsdale St: 790m, Carlton: 656m, Russell St: 651m, Russell St: 614m, Secure Parking - 460 Lonsdale Street Car Park: 781m, Secure Parking (Southern Cross): 810m, Melbourne Central Carpark: 509m, Lonsdale St: 493m, Bourke St: 874m, Queens & Collins: 988m, Lonsdale St: 726m, Flagstaff Car Park: 930m, QV Melbourne - Car Park: 493m, Carlton: 872m, "
34,Westgate Park,-37.8314918578874,144.908824792698,6,"Lorbek Luxury Cars: 979m, Lorbek Luxury Cars: 925m, Port Melbourne: 931m, Port Melbourne: 979m, Port Melbourne: 748m, Coles Express with co-located Hungry Jacks: 761m, "
35,North Melbourne Railway Station,-37.8073823625058,144.942429848025,7,"District Docklands Shopping - West Carpark: 776m, Docklands: 747m, Docklands: 594m, West Melbourne: 812m, Docklands: 633m, Flagstaff City Inn: 816m, Cellarbrations: 631m, "
36,Melbourne Childrens Court,-37.8125077646598,144.958298873269,36,"Lonsdale St: 232m, Bourke St: 300m, Secure Parking (450 Flinders Lane): 696m, Hyatt Centric Melbourne: 905m, Wilson Parking: 847m, Alto Hotel: 526m, Queen Victoria Market - Underground Carpark: 523m, Queen St: 521m, Holiday Inn Express Melbourne Little Collins: 650m, 300 Latrobe Street - Wilson Car Park: 345m, Lonsdale St: 463m, Lonsdale St: 63m, Flinders Ln: 679m, Rialto Car Park: 735m, Russell St: 830m, Russell St: 847m, Latrobe Street: 411m, West Melbourne: 694m, Wilson Parking: 300m, Secure Parking - 460 Lonsdale Street Car Park: 60m, Secure Parking (Southern Cross): 987m, Downie St: 889m, Southbank: 398m, Bourke St: 531m, Melbourne Central Carpark: 466m, Flagstaff City Inn: 690m, Lonsdale St: 757m, Secure Parking (300 Flinders St): 814m, Collins St: 648m, Queens & Collins: 473m, Flagstaff Car Park: 233m, Flinders Ln: 713m, Bourke St: 382m, Cellarbrations: 876m, Flinders St: 793m, QV Melbourne - Car Park: 757m, "
37,Etihad Stadium,-37.8161760471742,144.947496254547,21,"Lonsdale St: 801m, Bourke St: 801m, Hyatt Centric Melbourne: 868m, District Docklands Shopping - West Carpark: 997m, Docklands: 964m, Alto Hotel: 627m, Holiday Inn Express Melbourne Little Collins: 709m, Rialto Car Park: 946m, Docklands: 855m, Latrobe Street: 681m, West Melbourne: 742m, Wilson Parking: 802m, Docklands: 818m, Downie St: 838m, Southbank: 960m, Bourke St: 640m, Flagstaff City Inn: 742m, Collins St: 704m, Flagstaff Car Park: 801m, Flinders Ln: 947m, Cellarbrations: 720m, "
38,Eureka Skydeck 88,-37.8216187583314,144.964622218598,27,"South Melbourne: 966m, Secure Parking (450 Flinders Lane): 597m, Hyatt Centric Melbourne: 786m, Collins St: 882m, Holiday Inn Express Melbourne Little Collins: 920m, Flinders Ln: 622m, Holiday Inn Express Melbourne Southbank: 180m, Rialto Car Park: 676m, Crown Metropol Melbourne: 747m, Wilson Parking Eureka: 50m, Southbank: 244m, Flinders St: 818m, Southbank: 176m, Downie St: 811m, Southbank: 820m, Southbank: 93m, ACDC Garage: 810m, Secure Parking (300 Flinders St): 376m, Collins St: 926m, Queens & Collins: 688m, South Wharf: 950m, Grand Hyatt Melbourne: 875m, Federation Square Car Park: 727m, Flinders Ln: 678m, The Arts Centre: 294m, Bourke St: 786m, Flinders St: 402m, "
39,County Court Melbourne,-37.8132011619962,144.957734246387,35,"Lonsdale St: 160m, Bourke St: 208m, Secure Parking (450 Flinders Lane): 626m, Hyatt Centric Melbourne: 819m, Wilson Parking: 911m, Alto Hotel: 435m, Queen Victoria Market - Underground Carpark: 602m, Queen St: 599m, Holiday Inn Express Melbourne Little Collins: 560m, 300 Latrobe Street - Wilson Car Park: 436m, Lonsdale St: 535m, Lonsdale St: 44m, Flinders Ln: 607m, Rialto Car Park: 656m, Russell St: 889m, Russell St: 911m, Latrobe Street: 371m, West Melbourne: 684m, Wilson Parking: 208m, Secure Parking - 460 Lonsdale Street Car Park: 56m, Downie St: 801m, Southbank: 327m, Bourke St: 439m, Melbourne Central Carpark: 533m, Flagstaff City Inn: 680m, Lonsdale St: 828m, Secure Parking (300 Flinders St): 789m, Collins St: 557m, Queens & Collins: 449m, Flagstaff Car Park: 174m, Flinders Ln: 634m, Bourke St: 329m, Cellarbrations: 860m, Flinders St: 769m, QV Melbourne - Car Park: 828m, "
40,Sandridge Rail Bridge,-37.8201763042794,144.96298113724,35,"Lonsdale St: 972m, Bourke St: 830m, Secure Parking (450 Flinders Lane): 394m, Hyatt Centric Melbourne: 631m, Alto Hotel: 853m, Collins St: 852m, Holiday Inn Express Melbourne Little Collins: 723m, Lonsdale St: 979m, Lonsdale St: 893m, Flinders Ln: 418m, Holiday Inn Express Melbourne Southbank: 374m, Rialto Car Park: 486m, Crown Metropol Melbourne: 753m, Wilson Parking Eureka: 259m, Southbank: 402m, Flinders St: 826m, Wilson Parking: 830m, Southbank: 299m, Secure Parking - 460 Lonsdale Street Car Park: 891m, Downie St: 651m, Southbank: 605m, Southbank: 189m, ACDC Garage: 815m, Bourke St: 835m, Melbourne Central Carpark: 940m, Secure Parking (300 Flinders St): 231m, Collins St: 729m, Queens & Collins: 489m, South Wharf: 929m, Grand Hyatt Melbourne: 835m, Federation Square Car Park: 778m, Flinders Ln: 484m, The Arts Centre: 499m, Bourke St: 573m, Flinders St: 255m, "
41,Lincoln Square,-37.8027919689732,144.962760852233,11,"Melbourne Museum: 896m, Lygon Street Car park: 386m, Queen Victoria Market - Underground Carpark: 682m, Queen St: 689m, 300 Latrobe Street - Wilson Car Park: 825m, Lonsdale St: 956m, Carlton: 393m, Melbourne Central Carpark: 996m, Lonsdale St: 940m, QV Melbourne - Car Park: 939m, Carlton: 791m, "
42,Flemington Bridge Railway Station,-37.7881645889621,144.939277838304,0,N/a
43,Carlton Gardens South,-37.8060684577258,144.971266479841,19,"Melbourne Museum: 205m, Lygon Street Car park: 569m, Park Hyatt Melbourne: 779m, Wilson Parking: 655m, Collins St: 995m, Lonsdale St: 464m, Lonsdale St: 910m, Carlton: 564m, Russell St: 710m, Russell St: 655m, Secure Parking (Southern Cross): 726m, Parliament PI: 719m, Melbourne Central Carpark: 927m, Lonsdale St: 656m, Bourke St: 672m, Lonsdale St: 462m, Grand Hyatt Melbourne: 985m, QV Melbourne - Car Park: 656m, Carlton: 321m, "
44,Victoria Police,-37.8164849024046,144.966486801188,40,"Lonsdale St: 987m, Bourke St: 902m, Secure Parking (450 Flinders Lane): 715m, Park Hyatt Melbourne: 986m, Wilson Parking: 589m, Collins St: 359m, Lonsdale St: 768m, Holiday Inn Express Melbourne Little Collins: 995m, 300 Latrobe Street - Wilson Car Park: 883m, Lonsdale St: 630m, Lonsdale St: 819m, Flinders Ln: 727m, Holiday Inn Express Melbourne Southbank: 601m, Rialto Car Park: 832m, Russell St: 531m, Russell St: 589m, Wilson Parking Eureka: 594m, Southbank: 533m, Flinders St: 392m, Wilson Parking: 901m, Southbank: 476m, Secure Parking - 460 Lonsdale Street Car Park: 810m, Secure Parking (Southern Cross): 522m, Southbank: 709m, Southbank: 500m, ACDC Garage: 377m, Melbourne Central Carpark: 589m, Lonsdale St: 645m, Secure Parking (300 Flinders St): 293m, Collins St: 999m, Bourke St: 623m, Queens & Collins: 442m, Lonsdale St: 785m, Grand Hyatt Melbourne: 335m, Federation Square Car Park: 443m, Flinders Ln: 817m, The Arts Centre: 700m, Bourke St: 617m, Flinders St: 277m, QV Melbourne - Car Park: 645m, "
45,Royal Park Golf Course,-37.7819171308558,144.956309119368,0,N/a
46,Visy Park,-37.7834303940347,144.961982577553,0,N/a
47,Batman Park,-37.8218460949601,144.956665812218,31,"Lonsdale St: 937m, Bourke St: 786m, South Melbourne: 948m, Secure Parking (450 Flinders Lane): 394m, Hyatt Centric Melbourne: 177m, Alto Hotel: 647m, Holiday Inn Express Melbourne Little Collins: 460m, Lonsdale St: 984m, Flinders Ln: 399m, Holiday Inn Express Melbourne Southbank: 877m, Rialto Car Park: 316m, Melbourne Convention Exhibition Centre: 569m, Crown Metropol Melbourne: 417m, Wilson Parking Eureka: 748m, Southbank: 942m, Wilson Parking: 786m, Southbank: 856m, Secure Parking - 460 Lonsdale Street Car Park: 989m, Downie St: 206m, Southbank: 658m, Southbank: 739m, Bourke St: 629m, Secure Parking (300 Flinders St): 758m, Collins St: 466m, Queens & Collins: 781m, South Wharf: 464m, Flagstaff Car Park: 974m, Flinders Ln: 339m, The Arts Centre: 971m, Bourke St: 716m, Flinders St: 772m, "
48,Melbourne Town Hall,-37.8150754791411,144.966542722283,40,"Lonsdale St: 949m, Bourke St: 887m, Secure Parking (450 Flinders Lane): 789m, Park Hyatt Melbourne: 911m, Wilson Parking: 435m, Collins St: 312m, Lonsdale St: 623m, 300 Latrobe Street - Wilson Car Park: 764m, Lonsdale St: 496m, Lonsdale St: 764m, Flinders Ln: 797m, Holiday Inn Express Melbourne Southbank: 758m, Rialto Car Park: 903m, Russell St: 377m, Russell St: 435m, Wilson Parking Eureka: 749m, Southbank: 688m, Flinders St: 406m, Wilson Parking: 887m, Southbank: 632m, Secure Parking - 460 Lonsdale Street Car Park: 754m, Secure Parking (Southern Cross): 392m, Southbank: 722m, Parliament PI: 976m, Southbank: 654m, ACDC Garage: 391m, Melbourne Central Carpark: 456m, Lonsdale St: 489m, Secure Parking (300 Flinders St): 418m, Bourke St: 506m, Queens & Collins: 454m, Lonsdale St: 646m, Grand Hyatt Melbourne: 277m, Federation Square Car Park: 511m, Flagstaff Car Park: 972m, Flinders Ln: 885m, The Arts Centre: 855m, Bourke St: 623m, Flinders St: 397m, QV Melbourne - Car Park: 489m, "
49,Sidney Myer Music Bowl,-37.8233471608733,144.974686151365,9,"Holiday Inn Express Melbourne Southbank: 724m, Wilson Parking Eureka: 854m, Southbank: 685m, Flinders St: 859m, Southbank: 789m, Southbank: 897m, ACDC Garage: 867m, Federation Square Car Park: 691m, The Arts Centre: 620m, "
50,AAMI Park,-37.8247252673963,144.98380297866,2,"Pullman Melbourne on the Park: 972m, Pullman Melbourne: 992m, "
51,Melbourne Star Observation Wheel,-37.8116163666726,144.937588920436,4,"District Docklands Shopping - West Carpark: 148m, Docklands: 132m, Docklands: 155m, Docklands: 189m, "
52,Margaret Court Arena,-37.8213252086842,144.977591098955,10,"Collins St: 966m, Holiday Inn Express Melbourne Southbank: 963m, Southbank: 899m, Flinders St: 815m, Southbank: 992m, Pullman Melbourne on the Park: 772m, ACDC Garage: 828m, Pullman Melbourne: 788m, Federation Square Car Park: 682m, The Arts Centre: 885m, "
53,NGV International,-37.8230135000869,144.969342535451,14,"Collins St: 897m, Holiday Inn Express Melbourne Southbank: 267m, South Melbourne: 988m, Wilson Parking Eureka: 392m, Southbank: 263m, Flinders St: 769m, Southbank: 365m, Southbank: 454m, ACDC Garage: 769m, Secure Parking (300 Flinders St): 705m, Grand Hyatt Melbourne: 909m, Federation Square Car Park: 610m, The Arts Centre: 150m, Flinders St: 725m, "
54,Birrarung Marr,-37.81806108403,144.97314667014,24,"Park Hyatt Melbourne: 730m, Wilson Parking: 886m, Collins St: 436m, Lonsdale St: 940m, Holiday Inn Express Melbourne Southbank: 712m, Russell St: 844m, Russell St: 886m, Wilson Parking Eureka: 809m, Southbank: 618m, Flinders St: 282m, Southbank: 671m, Secure Parking (Southern Cross): 699m, Pullman Melbourne on the Park: 915m, Parliament PI: 828m, Southbank: 780m, ACDC Garage: 295m, Pullman Melbourne: 921m, Secure Parking (300 Flinders St): 802m, Bourke St: 689m, Lonsdale St: 906m, Grand Hyatt Melbourne: 469m, Federation Square Car Park: 167m, The Arts Centre: 706m, Flinders St: 802m, "
55,Artplay,-37.8184198800044,144.971542586509,25,"Park Hyatt Melbourne: 826m, Wilson Parking: 857m, Collins St: 404m, Lonsdale St: 943m, Holiday Inn Express Melbourne Southbank: 577m, Russell St: 809m, Russell St: 857m, Wilson Parking Eureka: 668m, Southbank: 482m, Flinders St: 251m, Southbank: 528m, Secure Parking (Southern Cross): 686m, Parliament PI: 922m, Southbank: 635m, ACDC Garage: 257m, Lonsdale St: 964m, Secure Parking (300 Flinders St): 661m, Bourke St: 703m, Queens & Collins: 925m, Lonsdale St: 920m, Grand Hyatt Melbourne: 429m, Federation Square Car Park: 79m, The Arts Centre: 586m, Flinders St: 663m, QV Melbourne - Car Park: 964m, "
56,Riverslide Skate Park,-37.8207887122448,144.972951789291,15,"Collins St: 694m, Holiday Inn Express Melbourne Southbank: 567m, Wilson Parking Eureka: 690m, Southbank: 493m, Flinders St: 539m, Southbank: 583m, Secure Parking (Southern Cross): 974m, Southbank: 700m, ACDC Garage: 546m, Secure Parking (300 Flinders St): 833m, Bourke St: 981m, Grand Hyatt Melbourne: 720m, Federation Square Car Park: 369m, The Arts Centre: 511m, Flinders St: 843m, "
57,Macaulay Railway Station (North Melbourne) - Train stop,-37.794964001386,144.936190756632,2,"Park Rises Residences: 891m, Kensington: 884m, "
58,Kensington Railway Station,-37.7939140126373,144.930710207518,2,"Park Rises Residences: 512m, Kensington: 500m, "
59,Royal Park,-37.7906174256581,144.953834240647,0,N/a
60,Shrine of Rembrance Reserve,-37.8320733992876,144.973628364465,4,"Secure Parking: 395m, Wilson’s Carpark: 407m, South Melbourne: 404m, Queens Road: 300m, "
61,Royal Botanic Gardens,-37.8306631583233,144.980850432751,2,"Wilson’s Carpark: 855m, Queens Road: 773m, "
62,Yarra Park,-37.820469374101,144.986671109615,2,"Pullman Melbourne on the Park: 582m, Pullman Melbourne: 599m, "
63,Icehouse,-37.8121881194053,144.935684018873,4,"District Docklands Shopping - West Carpark: 133m, Docklands: 164m, Docklands: 313m, Docklands: 328m, "
64,Parliament Railway Station,-37.8121572789173,144.973742010011,21,"Melbourne Museum: 844m, Park Hyatt Melbourne: 210m, Wilson Parking: 528m, Collins St: 447m, Lonsdale St: 424m, Lonsdale St: 914m, Russell St: 532m, Russell St: 529m, Flinders St: 513m, Secure Parking (Southern Cross): 371m, Pullman Melbourne on the Park: 936m, Parliament PI: 265m, ACDC Garage: 518m, Melbourne Central Carpark: 899m, Pullman Melbourne: 928m, Lonsdale St: 648m, Bourke St: 247m, Lonsdale St: 358m, Grand Hyatt Melbourne: 465m, Federation Square Car Park: 657m, QV Melbourne - Car Park: 648m, "
65,Flemington Racecourse Railway Station,-37.7869105822519,144.908190706069,0,N/a
66,Darling Square,-37.81299206932,144.989062559512,3,"Richmond Traders Coles: 956m, Pullman Melbourne on the Park: 611m, Pullman Melbourne: 600m, "
67,Parliament Reserve,-37.809852620638,144.973462202839,20,"Melbourne Museum: 587m, Park Hyatt Melbourne: 329m, Wilson Parking: 520m, Collins St: 641m, Lonsdale St: 331m, Lonsdale St: 902m, Russell St: 550m, Russell St: 520m, Flinders St: 741m, Secure Parking (Southern Cross): 450m, Parliament PI: 294m, ACDC Garage: 743m, Melbourne Central Carpark: 898m, Lonsdale St: 609m, Bourke St: 336m, Lonsdale St: 261m, Grand Hyatt Melbourne: 646m, Federation Square Car Park: 897m, QV Melbourne - Car Park: 609m, Carlton: 754m, "
68,North Melbourne Recreation Centre (Aquatic),-37.7999470049655,144.943290801869,0,N/a
69,North Melbourne Recreation Centre (Gymnasium),-37.7997051197931,144.940368286395,0,N/a
70,Carlton Baths,-37.7934377042609,144.971696548624,0,N/a
71,Conservatory,-37.814002127195,144.9785597431,16,"Park Hyatt Melbourne: 314m, Wilson Parking: 990m, Collins St: 751m, Lonsdale St: 893m, Russell St: 984m, Russell St: 990m, Flinders St: 713m, Secure Parking (Southern Cross): 811m, Pullman Melbourne on the Park: 466m, Parliament PI: 374m, ACDC Garage: 726m, Pullman Melbourne: 457m, Bourke St: 703m, Lonsdale St: 824m, Grand Hyatt Melbourne: 785m, Federation Square Car Park: 762m, "
72,Melbourne Visitor Centre,-37.8177352402006,144.967937138226,34,"Secure Parking (450 Flinders Lane): 805m, Park Hyatt Melbourne: 966m, Wilson Parking: 716m, Collins St: 361m, Lonsdale St: 867m, Lonsdale St: 813m, Lonsdale St: 999m, Flinders Ln: 821m, Holiday Inn Express Melbourne Southbank: 476m, Rialto Car Park: 919m, Russell St: 660m, Russell St: 716m, Wilson Parking Eureka: 505m, Southbank: 392m, Flinders St: 313m, Southbank: 365m, Secure Parking - 460 Lonsdale Street Car Park: 990m, Secure Parking (Southern Cross): 604m, Southbank: 855m, Southbank: 430m, ACDC Garage: 302m, Melbourne Central Carpark: 772m, Lonsdale St: 793m, Secure Parking (300 Flinders St): 349m, Bourke St: 678m, Queens & Collins: 600m, Lonsdale St: 870m, Grand Hyatt Melbourne: 356m, Federation Square Car Park: 293m, Flinders Ln: 908m, The Arts Centre: 554m, Bourke St: 770m, Flinders St: 346m, QV Melbourne - Car Park: 793m, "
73,Melbourne Visitor Booth,-37.8139525061193,144.964425882562,44,"Lonsdale St: 748m, Bourke St: 707m, Secure Parking (450 Flinders Lane): 724m, Wilson Parking: 420m, Alto Hotel: 897m, Queen Victoria Market - Underground Carpark: 871m, Collins St: 510m, Queen St: 875m, Lonsdale St: 634m, Holiday Inn Express Melbourne Little Collins: 912m, 300 Latrobe Street - Wilson Car Park: 548m, Lonsdale St: 301m, Lonsdale St: 554m, Flinders Ln: 725m, Holiday Inn Express Melbourne Southbank: 904m, Rialto Car Park: 828m, Russell St: 374m, Russell St: 420m, Latrobe Street: 964m, Wilson Parking Eureka: 867m, Southbank: 849m, Flinders St: 625m, Wilson Parking: 706m, Southbank: 775m, Secure Parking - 460 Lonsdale Street Car Park: 543m, Secure Parking (Southern Cross): 478m, Southbank: 578m, Southbank: 765m, ACDC Garage: 610m, Bourke St: 890m, Melbourne Central Carpark: 259m, Lonsdale St: 411m, Secure Parking (300 Flinders St): 481m, Collins St: 913m, Bourke St: 606m, Queens & Collins: 339m, Lonsdale St: 680m, Grand Hyatt Melbourne: 472m, Federation Square Car Park: 735m, Flagstaff Car Park: 767m, Flinders Ln: 807m, Bourke St: 478m, Flinders St: 455m, QV Melbourne - Car Park: 411m, "
74,State Netball Hockey Centre,-37.7857860016289,144.947580972027,0,N/a
75,University Square,-37.800410711209,144.960398319302,4,"Lygon Street Car park: 618m, Queen Victoria Market - Underground Carpark: 843m, Queen St: 847m, Carlton: 625m, "
76,Powlett Reserve,-37.8116929882498,144.987275671763,6,"Park Hyatt Melbourne: 980m, Collingwood Library: 960m, Pullman Melbourne on the Park: 596m, Parliament PI: 954m, Collingwood Library: 978m, Pullman Melbourne: 579m, "
77,Melbourne General Cemetery,-37.7891890023616,144.965785979892,0,N/a
78,Southern Cross Railway Station,-37.8181633057171,144.952944748845,28,"Lonsdale St: 587m, Bourke St: 486m, Secure Parking (450 Flinders Lane): 524m, Hyatt Centric Melbourne: 353m, Alto Hotel: 259m, Holiday Inn Express Melbourne Little Collins: 209m, Lonsdale St: 730m, Flinders Ln: 504m, Rialto Car Park: 423m, Melbourne Convention Exhibition Centre: 886m, Latrobe Street: 641m, Crown Metropol Melbourne: 917m, West Melbourne: 912m, Wilson Parking: 486m, Secure Parking - 460 Lonsdale Street Car Park: 740m, Downie St: 323m, Southbank: 533m, Bourke St: 254m, Flagstaff City Inn: 910m, Secure Parking (300 Flinders St): 973m, Collins St: 205m, Queens & Collins: 790m, South Wharf: 880m, Flagstaff Car Park: 613m, Flinders Ln: 426m, Bourke St: 633m, Cellarbrations: 994m, Flinders St: 972m, "
79,State Library Victoria,-37.8099852201226,144.964330322397,34,"Lonsdale St: 831m, Melbourne Museum: 948m, Bourke St: 874m, Lygon Street Car park: 903m, Wilson Parking: 339m, Queen Victoria Market - Underground Carpark: 584m, Collins St: 750m, Queen St: 592m, Lonsdale St: 471m, 300 Latrobe Street - Wilson Car Park: 323m, Lonsdale St: 175m, Lonsdale St: 638m, Carlton: 905m, Russell St: 358m, Russell St: 339m, Latrobe Street: 979m, Flinders St: 903m, Wilson Parking: 874m, Secure Parking - 460 Lonsdale Street Car Park: 626m, Secure Parking (Southern Cross): 533m, Southbank: 854m, ACDC Garage: 892m, Melbourne Central Carpark: 207m, Lonsdale St: 214m, Secure Parking (300 Flinders St): 921m, Bourke St: 625m, Queens & Collins: 707m, Lonsdale St: 544m, Grand Hyatt Melbourne: 716m, Flagstaff Car Park: 829m, Bourke St: 774m, Flinders St: 895m, QV Melbourne - Car Park: 213m, Carlton: 997m, "
80,Supreme Court,-37.8141494182814,144.957894024264,36,"Lonsdale St: 189m, Bourke St: 145m, Secure Parking (450 Flinders Lane): 519m, Hyatt Centric Melbourne: 719m, Wilson Parking: 928m, Alto Hotel: 369m, Queen Victoria Market - Underground Carpark: 706m, Queen St: 704m, Holiday Inn Express Melbourne Little Collins: 471m, 300 Latrobe Street - Wilson Car Park: 519m, Lonsdale St: 572m, Lonsdale St: 122m, Flinders Ln: 500m, Rialto Car Park: 551m, Russell St: 900m, Russell St: 928m, Latrobe Street: 422m, West Melbourne: 753m, Wilson Parking: 144m, Secure Parking - 460 Lonsdale Street Car Park: 128m, Downie St: 703m, Southbank: 221m, Southbank: 969m, Bourke St: 370m, Melbourne Central Carpark: 562m, Flagstaff City Inn: 750m, Lonsdale St: 857m, Secure Parking (300 Flinders St): 706m, Collins St: 469m, Queens & Collins: 373m, Flagstaff Car Park: 220m, Flinders Ln: 529m, Bourke St: 233m, Cellarbrations: 924m, Flinders St: 689m, QV Melbourne - Car Park: 856m, "
81,Richmond Football Club,-37.8216740022008,144.988156318781,2,"Pullman Melbourne on the Park: 765m, Pullman Melbourne: 782m, "
82,Melbourne Zoo,-37.7844449253712,144.951371205938,0,N/a
83,Melbourne International Shooting Club,-37.8292844929826,144.913415802464,6,"Lorbek Luxury Cars: 708m, Lorbek Luxury Cars: 606m, Port Melbourne: 589m, Port Melbourne: 705m, Port Melbourne: 332m, Coles Express with co-located Hungry Jacks: 334m, "
84,Docklands Park,-37.8209956785618,144.946781702342,10,"Hyatt Centric Melbourne: 795m, Alto Hotel: 868m, Holiday Inn Express Melbourne Little Collins: 825m, Rialto Car Park: 974m, Melbourne Convention Exhibition Centre: 796m, Downie St: 776m, Bourke St: 869m, Collins St: 823m, South Wharf: 919m, Flinders Ln: 987m, "
85,Point Park,-37.8233522700646,144.942102276731,0,N/a
86,Melbourne Theatre Company,-37.823930384816,144.968297429894,16,"Secure Parking: 912m, South Melbourne: 927m, South Melbourne: 976m, Holiday Inn Express Melbourne Southbank: 268m, South Melbourne: 888m, Crown Metropol Melbourne: 948m, Wilson Parking Eureka: 367m, Southbank: 311m, Flinders St: 889m, Southbank: 393m, Southbank: 451m, ACDC Garage: 888m, Secure Parking (300 Flinders St): 733m, Federation Square Car Park: 736m, The Arts Centre: 145m, Flinders St: 756m, "
87,Alexandra Gardens,-37.8206051404251,144.971796067365,15,"Collins St: 644m, Holiday Inn Express Melbourne Southbank: 474m, Wilson Parking Eureka: 594m, Southbank: 396m, Flinders St: 494m, Southbank: 482m, Secure Parking (Southern Cross): 928m, Southbank: 599m, ACDC Garage: 499m, Secure Parking (300 Flinders St): 731m, Bourke St: 947m, Grand Hyatt Melbourne: 667m, Federation Square Car Park: 321m, The Arts Centre: 431m, Flinders St: 741m, "
88,Richmond Railway Station (Richmond) - Train stop,-37.8238992659834,144.989400751664,0,N/a
89,Jolimont-MCG Railway Station (East Melbourne) - Train stop,-37.8165651811668,144.983641003377,4,"Park Hyatt Melbourne: 837m, Pullman Melbourne on the Park: 73m, Parliament PI: 879m, Pullman Melbourne: 90m, "
90,North Melbourne Recreation Reserve,-37.7988345257153,144.941452061463,0,N/a
91,Princes Park,-37.7870161727156,144.961115214367,0,N/a
92,Shrine of Remembrance,-37.8302080020387,144.973441913623,5,"Secure Parking: 434m, Wilson’s Carpark: 614m, South Melbourne: 430m, Queens Road: 508m, The Arts Centre: 975m, "
93,Showgrounds Railway Station (Flemington),-37.7834651216244,144.914902626775,0,N/a
94,Newmarket Railway Station,-37.7872726241965,144.929059958114,0,N/a
95,Melbourne Showgrounds,-37.7823097850883,144.910822117306,0,N/a
96,Argyle Square,-37.8031480577285,144.965761295089,16,"Melbourne Museum: 631m, Lygon Street Car park: 159m, Wilson Parking: 924m, Queen Victoria Market - Underground Carpark: 836m, Queen St: 845m, Lonsdale St: 843m, 300 Latrobe Street - Wilson Car Park: 886m, Lonsdale St: 938m, Carlton: 165m, Russell St: 977m, Russell St: 923m, Melbourne Central Carpark: 975m, Lonsdale St: 840m, Lonsdale St: 886m, QV Melbourne - Car Park: 840m, Carlton: 526m, "
97,Piazza Italia,-37.8025164192523,144.965863092947,13,"Melbourne Museum: 644m, Lygon Street Car park: 114m, Wilson Parking: 991m, Queen Victoria Market - Underground Carpark: 888m, Queen St: 897m, Lonsdale St: 904m, 300 Latrobe Street - Wilson Car Park: 952m, Carlton: 120m, Russell St: 991m, Lonsdale St: 910m, Lonsdale St: 945m, QV Melbourne - Car Park: 910m, Carlton: 523m, "
98,Murchinson Square,-37.8002735025371,144.973059252203,4,"Melbourne Museum: 483m, Lygon Street Car park: 565m, Carlton: 559m, Carlton: 345m, "
99,Westpac Centre,-37.8242456858593,144.979720306309,2,"Pullman Melbourne on the Park: 968m, Pullman Melbourne: 987m, "
100,Webb Bridge,-37.8232052384507,144.947291011905,7,"Hyatt Centric Melbourne: 809m, Holiday Inn Express Melbourne Little Collins: 921m, Melbourne Convention Exhibition Centre: 605m, Crown Metropol Melbourne: 949m, Downie St: 800m, Collins St: 920m, South Wharf: 758m, "
